[{"STOP_ID":"19970","LATITUDE":-37.781193,"STOP_NAME":"Royal Park Railway Station (Parkville)","LONGITUDE":144.952301,"TICKETZONE":"1","ROUTEUSSP":"Upfield"},
{"STOP_ID":"19971","LATITUDE":-37.78814,"STOP_NAME":"Flemington Bridge Railway Station (North Melbourne)","LONGITUDE":144.939323,"TICKETZONE":"1","ROUTEUSSP":"Upfield"},{"STOP_ID":"19972","LATITUDE":-37.794267,"STOP_NAME":"Macaulay Railway Station (North Melbourne)","LONGITUDE":144.936166,"TICKETZONE":"1","ROUTEUSSP":"Upfield"},{"STOP_ID":"19973","LATITUDE":-37.807419,"STOP_NAME":"North Melbourne Railway Station (West Melbourne)","LONGITUDE":144.94257,"TICKETZONE":"1","ROUTEUSSP":"Flemington,Sunbury,Upfield,Werribee,Williamstown,Craigieburn"},{"STOP_ID":"19979","LATITUDE":-37.816527,"STOP_NAME":"Jolimont-MCG Railway Station (East Melbourne)","LONGITUDE":144.984098,"TICKETZONE":"1","ROUTEUSSP":"Mernda,Hurstbridge"},{"STOP_ID":"20026","LATITUDE":-37.799531,"STOP_NAME":"South Kensington Railway Station (Kensington)","LONGITUDE":144.925469,"TICKETZONE":"1","ROUTEUSSP":"Williamstown,Werribee"},{"STOP_ID":"20041","LATITUDE":-37.79378,"STOP_NAME":"Kensington Railway Station (Kensington)","LONGITUDE":144.930524,"TICKETZONE":"1","ROUTEUSSP":"Craigieburn"},{"STOP_ID":"22180","LATITUDE":-37.817936,"STOP_NAME":"Southern Cross Railway Station (Melbourne City)","LONGITUDE":144.951411,"TICKETZONE":"1","ROUTEUSSP":"Belgrave,Craigieburn,Cranbourne,Flemington,Frankston,Glen Waverley,Hurstbridge,Lilydale,Mernda,Pakenham,Sandringham,Sunbury,Upfield,Werribee,Williamstown,Alamein"},{"STOP_ID":"19841","LATITUDE":-37.811981,"STOP_NAME":"Flagstaff Railway Station (Melbourne City)","LONGITUDE":144.955654,"TICKETZONE":"1","ROUTEUSSP":"Belgrave,Craigieburn,Cranbourne,Flemington,Glen Waverley,Hurstbridge,Lilydale,Mernda,Pakenham,Sunbury,Upfield,Alamein"},{"STOP_ID":"19842","LATITUDE":-37.809939,"STOP_NAME":"Melbourne Central Railway Station (Melbourne City)","LONGITUDE":144.962594,"TICKETZONE":"1","ROUTEUSSP":"Belgrave,Craigieburn,Cranbourne,Flemington,Glen Waverley,Hurstbridge,Lilydale,Mernda,Pakenham,Sunbury,Upfield,Alamein"},{"STOP_ID":"19843","LATITUDE":-37.811054,"STOP_NAME":"Parliament Railway Station (Melbourne City)","LONGITUDE":144.972911,"TICKETZONE":"1","ROUTEUSSP":"Belgrave,Craigieburn,Cranbourne,Flemington,Glen Waverley,Hurstbridge,Lilydale,Mernda,Pakenham,Sunbury,Upfield,Alamein"},{"STOP_ID":"19854","LATITUDE":-37.818305,"STOP_NAME":"Flinders Street Railway Station (Melbourne City)","LONGITUDE":144.966964,"TICKETZONE":"1","ROUTEUSSP":"Belgrave,Craigieburn,Cranbourne,Flemington,Frankston,Glen Waverley,Hurstbridge,Lilydale,Mernda,Pakenham,Sandringham,Sunbury,Upfield,Werribee,Williamstown,Alamein"}]